{"ast":null,"code":"export const mapModule = {\n  state: () => ({\n    main_cities: [{\n      name: 'Екатеринбург',\n      lat: 56.838011,\n      lng: 60.597474\n    }, {\n      name: \"Тюмень\",\n      lat: 57.152985,\n      lng: 65.541227\n    }, {\n      name: \"Челябинск\",\n      lat: 55.159902,\n      lng: 61.402554\n    }, {\n      name: \"Омск\",\n      lat: 54.989347,\n      lng: 73.368221\n    }, {\n      name: \"Новосибирск\",\n      lat: 55.030204,\n      lng: 82.920430\n    }, {\n      name: \"Барнаул\",\n      lat: 53.346785,\n      lng: 83.776856\n    }, {\n      name: \"Томск\",\n      lat: 56.484645,\n      lng: 84.947649\n    }, {\n      name: \"Кемерово\",\n      lat: 55.355198,\n      lng: 86.086847\n    }, {\n      name: \"Новокузнецк\",\n      lat: 53.757553,\n      lng: 87.136053\n    }, {\n      name: \"Красноярск\",\n      lat: 56.010569,\n      lng: 92.852572\n    }, {\n      name: \"Братск\",\n      lat: 56.151682,\n      lng: 101.633505\n    }, {\n      name: \"Иркутск\",\n      lat: 52.289588,\n      lng: 104.280606\n    }, {\n      name: \"Улан-Удэ\",\n      lat: 51.834809,\n      lng: 107.584547\n    }, {\n      name: \"Чита\",\n      lat: 52.033635,\n      lng: 113.501049\n    }, {\n      name: \"Ростов-на-Дону\",\n      lat: 47.222078,\n      lng: 39.720358\n    }, {\n      name: \"Краснодар\",\n      lat: 45.035470,\n      lng: 38.975313\n    }, {\n      name: \"Новороссийск\",\n      lat: 44.723771,\n      lng: 37.768813\n    }, {\n      name: \"Волгоград\",\n      lat: 48.707067,\n      lng: 44.516975\n    }, {\n      name: \"Севастополь\",\n      lat: 44.556972,\n      lng: 33.526402\n    }, {\n      name: \"Симферополь\",\n      lat: 44.948237,\n      lng: 34.100327\n    }, {\n      name: \"Якутск\",\n      lat: 62.027221,\n      lng: 129.732178\n    }, {\n      name: \"Южно-Сахалинск\",\n      lat: 46.957771,\n      lng: 142.729587\n    }, {\n      name: \"Хабаровск\",\n      lat: 48.480229,\n      lng: 135.071917\n    }, {\n      name: \"Благовещенск\",\n      lat: 50.249266,\n      lng: 127.553278\n    }, {\n      name: \"Ангарск\",\n      lat: 52.544358,\n      lng: 103.888249\n    }, {\n      name: \"Абакан\",\n      lat: 53.721152,\n      lng: 91.442396\n    }, {\n      name: \"Бийск\",\n      lat: 52.541811,\n      lng: 85.220656\n    }],\n    cities: [{\n      name: 'Анжеро-Судженск',\n      lat: 56.083180,\n      lng: 86.018216\n    }, {\n      name: 'Ачинск',\n      lat: 56.269501,\n      lng: 90.495240\n    }, {\n      name: 'Биробиджан',\n      lat: 48.789920,\n      lng: 132.924746\n    }, {\n      name: 'Белово',\n      lat: 54.422120,\n      lng: 86.303701\n    }, {\n      name: 'Владивосток',\n      lat: 43.115542,\n      lng: 131.885494\n    }, {\n      name: 'Горно-Алтайск',\n      lat: 51.957804,\n      lng: 85.960634\n    }, {\n      name: 'Кемерево',\n      lat: 55.355198,\n      lng: 86.086847\n    }, {\n      name: 'Киселевск',\n      lat: 54.006025,\n      lng: 86.636688\n    }, {\n      name: 'Кызыл',\n      lat: 51.719890,\n      lng: 94.437990\n    }, {\n      name: 'Комсомольск-на-Амуре',\n      lat: 50.550055,\n      lng: 137.008685\n    }, {\n      name: 'Ленинск-Кузнецкий',\n      lat: 54.663609,\n      lng: 86.162243\n    }, {\n      name: 'Магадан',\n      lat: 59.565155,\n      lng: 150.808586\n    }, {\n      name: 'Мариинск',\n      lat: 56.206957,\n      lng: 87.742263\n    }, {\n      name: 'Междуреченск',\n      lat: 53.685199,\n      lng: 88.080398\n    }, {\n      name: 'Нерюнгри',\n      lat: 56.657717,\n      lng: 124.712311\n    }, {\n      name: 'Петропавловск-Камчатский',\n      lat: 53.024265,\n      lng: 158.643503\n    }, {\n      name: 'Прокопьевск',\n      lat: 53.884493,\n      lng: 86.750055\n    }, {\n      name: 'Усть-Кут',\n      lat: 56.780882,\n      lng: 105.745390\n    }, {\n      name: 'Усть-Илимск',\n      lat: 57.942686,\n      lng: 102.733519\n    }, {\n      name: 'Уссурийск',\n      lat: 43.797247,\n      lng: 131.952122\n    }, {\n      name: 'Тобольск',\n      lat: 58.196670,\n      lng: 68.233810\n    }, {\n      name: 'Нефтеюганск',\n      lat: 61.088255,\n      lng: 72.616403\n    }, {\n      name: 'Нижневартовск',\n      lat: 60.938545,\n      lng: 76.558902\n    }, {\n      name: 'Ноябрьск',\n      lat: 63.201805,\n      lng: 75.450938\n    }, {\n      name: 'Нягань',\n      lat: 62.146810,\n      lng: 65.433393\n    }, {\n      name: 'Стрежевой',\n      lat: 60.732867,\n      lng: 77.604011\n    }, {\n      name: 'Суругут',\n      lat: 61.241778,\n      lng: 73.393032\n    }, {\n      name: 'Ханты-Мансийск',\n      lat: 61.003184,\n      lng: 69.018911\n    }, {\n      name: 'Новый Уренгой',\n      lat: 66.084539,\n      lng: 76.680956\n    }, {\n      name: 'Губукинский',\n      lat: 64.432625,\n      lng: 76.500503\n    }, {\n      name: 'Коротчаево',\n      lat: 65.926691,\n      lng: 78.183829\n    }, {\n      name: 'Надым',\n      lat: 65.527025,\n      lng: 72.540055\n    }, {\n      name: 'Тазовский',\n      lat: 67.875308,\n      lng: 80.351490\n    }, {\n      name: 'Тарко-Сале',\n      lat: 64.911823,\n      lng: 77.761055\n    }, {\n      name: 'Пангоды',\n      lat: 65.856470,\n      lng: 74.493630\n    }]\n  })\n};","map":{"version":3,"names":["mapModule","state","main_cities","name","lat","lng","cities"],"sources":["C:/Users/ruste/WebstormProjects/camion-express-front/src/store/mapModule.js"],"sourcesContent":["export const mapModule = {\r\n    state: () => ({\r\n        main_cities: [\r\n            {name: 'Екатеринбург', lat: 56.838011, lng: 60.597474},\r\n            {name: \"Тюмень\", lat: 57.152985, lng: 65.541227},\r\n            {name: \"Челябинск\", lat: 55.159902, lng: 61.402554},\r\n            {name: \"Омск\", lat: 54.989347, lng: 73.368221},\r\n            {name: \"Новосибирск\", lat: 55.030204, lng: 82.920430},\r\n            {name: \"Барнаул\", lat: 53.346785, lng: 83.776856},\r\n            {name: \"Томск\", lat: 56.484645, lng: 84.947649},\r\n            {name: \"Кемерово\", lat: 55.355198, lng: 86.086847},\r\n            {name: \"Новокузнецк\", lat: 53.757553, lng: 87.136053},\r\n            {name: \"Красноярск\", lat: 56.010569, lng: 92.852572},\r\n            {name: \"Братск\", lat: 56.151682, lng: 101.633505},\r\n            {name: \"Иркутск\", lat: 52.289588, lng: 104.280606},\r\n            {name: \"Улан-Удэ\", lat: 51.834809, lng: 107.584547},\r\n            {name: \"Чита\", lat: 52.033635, lng: 113.501049},\r\n            {name: \"Ростов-на-Дону\", lat: 47.222078, lng: 39.720358},\r\n            {name: \"Краснодар\", lat: 45.035470, lng: 38.975313},\r\n            {name: \"Новороссийск\", lat: 44.723771, lng: 37.768813},\r\n            {name: \"Волгоград\", lat: 48.707067, lng: 44.516975},\r\n            {name: \"Севастополь\", lat: 44.556972, lng: 33.526402},\r\n            {name: \"Симферополь\", lat: 44.948237, lng: 34.100327},\r\n            {name: \"Якутск\", lat: 62.027221, lng: 129.732178},\r\n            {name: \"Южно-Сахалинск\", lat: 46.957771, lng: 142.729587},\r\n            {name: \"Хабаровск\", lat: 48.480229, lng: 135.071917},\r\n            {name: \"Благовещенск\", lat: 50.249266, lng: 127.553278},\r\n            {name: \"Ангарск\", lat: 52.544358, lng: 103.888249},\r\n            {name: \"Абакан\", lat: 53.721152, lng: 91.442396},\r\n            {name: \"Бийск\", lat: 52.541811, lng: 85.220656},\r\n\r\n\r\n        ],\r\n        cities: [\r\n            {name: 'Анжеро-Судженск', lat: 56.083180, lng: 86.018216},\r\n            {name: 'Ачинск', lat: 56.269501, lng: 90.495240},\r\n            {name: 'Биробиджан', lat: 48.789920, lng: 132.924746},\r\n            {name: 'Белово', lat: 54.422120, lng: 86.303701},\r\n            {name: 'Владивосток', lat: 43.115542, lng: 131.885494},\r\n            {name: 'Горно-Алтайск', lat: 51.957804, lng: 85.960634},\r\n            {name: 'Кемерево', lat: 55.355198, lng: 86.086847},\r\n            {name: 'Киселевск', lat: 54.006025, lng: 86.636688},\r\n            {name: 'Кызыл', lat: 51.719890, lng: 94.437990},\r\n            {name: 'Комсомольск-на-Амуре', lat: 50.550055, lng: 137.008685},\r\n            {name: 'Ленинск-Кузнецкий', lat: 54.663609, lng: 86.162243},\r\n            {name: 'Магадан', lat: 59.565155, lng: 150.808586},\r\n            {name: 'Мариинск', lat: 56.206957, lng: 87.742263},\r\n            {name: 'Междуреченск', lat: 53.685199, lng: 88.080398},\r\n            {name: 'Нерюнгри', lat: 56.657717, lng: 124.712311},\r\n            {name: 'Петропавловск-Камчатский', lat: 53.024265, lng: 158.643503},\r\n            {name: 'Прокопьевск', lat: 53.884493, lng: 86.750055},\r\n            {name: 'Усть-Кут', lat: 56.780882, lng: 105.745390},\r\n            {name: 'Усть-Илимск', lat: 57.942686, lng: 102.733519},\r\n            {name: 'Уссурийск', lat: 43.797247, lng: 131.952122},\r\n            {name: 'Тобольск', lat: 58.196670, lng: 68.233810},\r\n            {name: 'Нефтеюганск', lat: 61.088255, lng: 72.616403},\r\n            {name: 'Нижневартовск', lat: 60.938545, lng: 76.558902},\r\n            {name: 'Ноябрьск', lat: 63.201805, lng: 75.450938},\r\n            {name: 'Нягань', lat: 62.146810, lng: 65.433393},\r\n            {name: 'Стрежевой', lat: 60.732867, lng: 77.604011},\r\n            {name: 'Суругут', lat: 61.241778, lng: 73.393032},\r\n            {name: 'Ханты-Мансийск', lat: 61.003184, lng: 69.018911},\r\n            {name: 'Новый Уренгой', lat: 66.084539, lng: 76.680956},\r\n            {name: 'Губукинский', lat: 64.432625, lng: 76.500503},\r\n            {name: 'Коротчаево', lat: 65.926691, lng: 78.183829},\r\n            {name: 'Надым', lat: 65.527025, lng: 72.540055},\r\n            {name: 'Тазовский', lat: 67.875308, lng: 80.351490},\r\n            {name: 'Тарко-Сале', lat: 64.911823, lng: 77.761055},\r\n            {name: 'Пангоды', lat: 65.856470, lng: 74.493630},\r\n        ]\r\n    })\r\n}"],"mappings":"AAAA,OAAO,MAAMA,SAAS,GAAG;EACrBC,KAAK,EAAEA,CAAA,MAAO;IACVC,WAAW,EAAE,CACT;MAACC,IAAI,EAAE,cAAc;MAAEC,GAAG,EAAE,SAAS;MAAEC,GAAG,EAAE;IAAS,CAAC,EACtD;MAACF,IAAI,EAAE,QAAQ;MAAEC,GAAG,EAAE,SAAS;MAAEC,GAAG,EAAE;IAAS,CAAC,EAChD;MAACF,IAAI,EAAE,WAAW;MAAEC,GAAG,EAAE,SAAS;MAAEC,GAAG,EAAE;IAAS,CAAC,EACnD;MAACF,IAAI,EAAE,MAAM;MAAEC,GAAG,EAAE,SAAS;MAAEC,GAAG,EAAE;IAAS,CAAC,EAC9C;MAACF,IAAI,EAAE,aAAa;MAAEC,GAAG,EAAE,SAAS;MAAEC,GAAG,EAAE;IAAS,CAAC,EACrD;MAACF,IAAI,EAAE,SAAS;MAAEC,GAAG,EAAE,SAAS;MAAEC,GAAG,EAAE;IAAS,CAAC,EACjD;MAACF,IAAI,EAAE,OAAO;MAAEC,GAAG,EAAE,SAAS;MAAEC,GAAG,EAAE;IAAS,CAAC,EAC/C;MAACF,IAAI,EAAE,UAAU;MAAEC,GAAG,EAAE,SAAS;MAAEC,GAAG,EAAE;IAAS,CAAC,EAClD;MAACF,IAAI,EAAE,aAAa;MAAEC,GAAG,EAAE,SAAS;MAAEC,GAAG,EAAE;IAAS,CAAC,EACrD;MAACF,IAAI,EAAE,YAAY;MAAEC,GAAG,EAAE,SAAS;MAAEC,GAAG,EAAE;IAAS,CAAC,EACpD;MAACF,IAAI,EAAE,QAAQ;MAAEC,GAAG,EAAE,SAAS;MAAEC,GAAG,EAAE;IAAU,CAAC,EACjD;MAACF,IAAI,EAAE,SAAS;MAAEC,GAAG,EAAE,SAAS;MAAEC,GAAG,EAAE;IAAU,CAAC,EAClD;MAACF,IAAI,EAAE,UAAU;MAAEC,GAAG,EAAE,SAAS;MAAEC,GAAG,EAAE;IAAU,CAAC,EACnD;MAACF,IAAI,EAAE,MAAM;MAAEC,GAAG,EAAE,SAAS;MAAEC,GAAG,EAAE;IAAU,CAAC,EAC/C;MAACF,IAAI,EAAE,gBAAgB;MAAEC,GAAG,EAAE,SAAS;MAAEC,GAAG,EAAE;IAAS,CAAC,EACxD;MAACF,IAAI,EAAE,WAAW;MAAEC,GAAG,EAAE,SAAS;MAAEC,GAAG,EAAE;IAAS,CAAC,EACnD;MAACF,IAAI,EAAE,cAAc;MAAEC,GAAG,EAAE,SAAS;MAAEC,GAAG,EAAE;IAAS,CAAC,EACtD;MAACF,IAAI,EAAE,WAAW;MAAEC,GAAG,EAAE,SAAS;MAAEC,GAAG,EAAE;IAAS,CAAC,EACnD;MAACF,IAAI,EAAE,aAAa;MAAEC,GAAG,EAAE,SAAS;MAAEC,GAAG,EAAE;IAAS,CAAC,EACrD;MAACF,IAAI,EAAE,aAAa;MAAEC,GAAG,EAAE,SAAS;MAAEC,GAAG,EAAE;IAAS,CAAC,EACrD;MAACF,IAAI,EAAE,QAAQ;MAAEC,GAAG,EAAE,SAAS;MAAEC,GAAG,EAAE;IAAU,CAAC,EACjD;MAACF,IAAI,EAAE,gBAAgB;MAAEC,GAAG,EAAE,SAAS;MAAEC,GAAG,EAAE;IAAU,CAAC,EACzD;MAACF,IAAI,EAAE,WAAW;MAAEC,GAAG,EAAE,SAAS;MAAEC,GAAG,EAAE;IAAU,CAAC,EACpD;MAACF,IAAI,EAAE,cAAc;MAAEC,GAAG,EAAE,SAAS;MAAEC,GAAG,EAAE;IAAU,CAAC,EACvD;MAACF,IAAI,EAAE,SAAS;MAAEC,GAAG,EAAE,SAAS;MAAEC,GAAG,EAAE;IAAU,CAAC,EAClD;MAACF,IAAI,EAAE,QAAQ;MAAEC,GAAG,EAAE,SAAS;MAAEC,GAAG,EAAE;IAAS,CAAC,EAChD;MAACF,IAAI,EAAE,OAAO;MAAEC,GAAG,EAAE,SAAS;MAAEC,GAAG,EAAE;IAAS,CAAC,CAGlD;IACDC,MAAM,EAAE,CACJ;MAACH,IAAI,EAAE,iBAAiB;MAAEC,GAAG,EAAE,SAAS;MAAEC,GAAG,EAAE;IAAS,CAAC,EACzD;MAACF,IAAI,EAAE,QAAQ;MAAEC,GAAG,EAAE,SAAS;MAAEC,GAAG,EAAE;IAAS,CAAC,EAChD;MAACF,IAAI,EAAE,YAAY;MAAEC,GAAG,EAAE,SAAS;MAAEC,GAAG,EAAE;IAAU,CAAC,EACrD;MAACF,IAAI,EAAE,QAAQ;MAAEC,GAAG,EAAE,SAAS;MAAEC,GAAG,EAAE;IAAS,CAAC,EAChD;MAACF,IAAI,EAAE,aAAa;MAAEC,GAAG,EAAE,SAAS;MAAEC,GAAG,EAAE;IAAU,CAAC,EACtD;MAACF,IAAI,EAAE,eAAe;MAAEC,GAAG,EAAE,SAAS;MAAEC,GAAG,EAAE;IAAS,CAAC,EACvD;MAACF,IAAI,EAAE,UAAU;MAAEC,GAAG,EAAE,SAAS;MAAEC,GAAG,EAAE;IAAS,CAAC,EAClD;MAACF,IAAI,EAAE,WAAW;MAAEC,GAAG,EAAE,SAAS;MAAEC,GAAG,EAAE;IAAS,CAAC,EACnD;MAACF,IAAI,EAAE,OAAO;MAAEC,GAAG,EAAE,SAAS;MAAEC,GAAG,EAAE;IAAS,CAAC,EAC/C;MAACF,IAAI,EAAE,sBAAsB;MAAEC,GAAG,EAAE,SAAS;MAAEC,GAAG,EAAE;IAAU,CAAC,EAC/D;MAACF,IAAI,EAAE,mBAAmB;MAAEC,GAAG,EAAE,SAAS;MAAEC,GAAG,EAAE;IAAS,CAAC,EAC3D;MAACF,IAAI,EAAE,SAAS;MAAEC,GAAG,EAAE,SAAS;MAAEC,GAAG,EAAE;IAAU,CAAC,EAClD;MAACF,IAAI,EAAE,UAAU;MAAEC,GAAG,EAAE,SAAS;MAAEC,GAAG,EAAE;IAAS,CAAC,EAClD;MAACF,IAAI,EAAE,cAAc;MAAEC,GAAG,EAAE,SAAS;MAAEC,GAAG,EAAE;IAAS,CAAC,EACtD;MAACF,IAAI,EAAE,UAAU;MAAEC,GAAG,EAAE,SAAS;MAAEC,GAAG,EAAE;IAAU,CAAC,EACnD;MAACF,IAAI,EAAE,0BAA0B;MAAEC,GAAG,EAAE,SAAS;MAAEC,GAAG,EAAE;IAAU,CAAC,EACnE;MAACF,IAAI,EAAE,aAAa;MAAEC,GAAG,EAAE,SAAS;MAAEC,GAAG,EAAE;IAAS,CAAC,EACrD;MAACF,IAAI,EAAE,UAAU;MAAEC,GAAG,EAAE,SAAS;MAAEC,GAAG,EAAE;IAAU,CAAC,EACnD;MAACF,IAAI,EAAE,aAAa;MAAEC,GAAG,EAAE,SAAS;MAAEC,GAAG,EAAE;IAAU,CAAC,EACtD;MAACF,IAAI,EAAE,WAAW;MAAEC,GAAG,EAAE,SAAS;MAAEC,GAAG,EAAE;IAAU,CAAC,EACpD;MAACF,IAAI,EAAE,UAAU;MAAEC,GAAG,EAAE,SAAS;MAAEC,GAAG,EAAE;IAAS,CAAC,EAClD;MAACF,IAAI,EAAE,aAAa;MAAEC,GAAG,EAAE,SAAS;MAAEC,GAAG,EAAE;IAAS,CAAC,EACrD;MAACF,IAAI,EAAE,eAAe;MAAEC,GAAG,EAAE,SAAS;MAAEC,GAAG,EAAE;IAAS,CAAC,EACvD;MAACF,IAAI,EAAE,UAAU;MAAEC,GAAG,EAAE,SAAS;MAAEC,GAAG,EAAE;IAAS,CAAC,EAClD;MAACF,IAAI,EAAE,QAAQ;MAAEC,GAAG,EAAE,SAAS;MAAEC,GAAG,EAAE;IAAS,CAAC,EAChD;MAACF,IAAI,EAAE,WAAW;MAAEC,GAAG,EAAE,SAAS;MAAEC,GAAG,EAAE;IAAS,CAAC,EACnD;MAACF,IAAI,EAAE,SAAS;MAAEC,GAAG,EAAE,SAAS;MAAEC,GAAG,EAAE;IAAS,CAAC,EACjD;MAACF,IAAI,EAAE,gBAAgB;MAAEC,GAAG,EAAE,SAAS;MAAEC,GAAG,EAAE;IAAS,CAAC,EACxD;MAACF,IAAI,EAAE,eAAe;MAAEC,GAAG,EAAE,SAAS;MAAEC,GAAG,EAAE;IAAS,CAAC,EACvD;MAACF,IAAI,EAAE,aAAa;MAAEC,GAAG,EAAE,SAAS;MAAEC,GAAG,EAAE;IAAS,CAAC,EACrD;MAACF,IAAI,EAAE,YAAY;MAAEC,GAAG,EAAE,SAAS;MAAEC,GAAG,EAAE;IAAS,CAAC,EACpD;MAACF,IAAI,EAAE,OAAO;MAAEC,GAAG,EAAE,SAAS;MAAEC,GAAG,EAAE;IAAS,CAAC,EAC/C;MAACF,IAAI,EAAE,WAAW;MAAEC,GAAG,EAAE,SAAS;MAAEC,GAAG,EAAE;IAAS,CAAC,EACnD;MAACF,IAAI,EAAE,YAAY;MAAEC,GAAG,EAAE,SAAS;MAAEC,GAAG,EAAE;IAAS,CAAC,EACpD;MAACF,IAAI,EAAE,SAAS;MAAEC,GAAG,EAAE,SAAS;MAAEC,GAAG,EAAE;IAAS,CAAC;EAEzD,CAAC;AACL,CAAC"},"metadata":{},"sourceType":"module","externalDependencies":[]}